{
	"start":{
		"z":11,
		"lat":32.72,
		"lng":-117.15,
		"brng":0,
		"pitch":0,
		"style":"hot-osm",
		"map":"ec2",
		"lib":"mapbox"
	},
    "styles":[{
    	"key":"hot-osm",
    	"label":"HOT OSM",
    	"tileSrc":"images/hot-osm.png",
    	"mapboxStyle":"styles/hot-osm3d.json",
    	"olStyle":"styles/hot-osm.json"
    },{
    	"key":"camo",
    	"label":"Camo",
    	"tileSrc":"images/camo.png",
    	"mapboxStyle":"styles/camo3d.json",
    	"olStyle":"styles/camo.json"
    },{
    	"key":"night-vision",
    	"label":"Night",
    	"tileSrc":"images/night-vision.png",
    	"mapboxStyle":"styles/night-vision3d.json",
    	"olStyle":"styles/night-vision.json"
    },{
    	"key":"mobility",
    	"label":"Mobility",
    	"tileSrc":"images/mobility.png",
    	"mapboxStyle":"styles/mobility3d.json",
    	"olStyle":"styles/mobility.json"
    },{
    	"key":"osgeo",
    	"label":"OSGeo",
    	"tileSrc":"images/osgeo.png",
    	"mapboxStyle":"styles/osgeo3d.json",
    	"olStyle":"styles/osgeo.json"
    }],
    "maps":[{
    	"key":"ec2",
    	"label":"EC2",
    	"sources":{
			"osm":{
				"url":"https://osm.tegola.io/capabilities/osm.json",
				"type":"vector"
			},
			"satellite":{
				"url":"https://api.tiles.mapbox.com/v4/digitalglobe.nal0g75k/{z}/{x}/{y}.png?access_token=pk.eyJ1IjoiZGlnaXRhbGdsb2JlIiwiYSI6ImNqNWIyMHkxdzBmNGczNG55bGNhc2tlcncifQ.lQXsl-GCFgJWmIKEeaRpPg",
				"type":"raster",
				"attribution":"Â© DigitalGlobe, Inc"
			}
		},
    	"url":"https://osm.tegola.io/capabilities/osm.json",
    	"styleName":"osm"
    }],
    "libs":[{
    	"key":"mapbox",
    	"label":"Mapbox",
    	"library":"mapbox",
    	"accessToken":"pk.eyJ1IjoiamowaG5zMG4iLCJhIjoiY2o1YjRtMjZpMGd2MDJ3bW00bnA5NXdyMiJ9.qlR4a_qfTlKZs1Qisk6sAg"
    },{
    	"key":"ol",
    	"label":"Open Layers",
    	"library":"ol"
    }],
    "locs":[{
    	"key":"sd",
    	"label":"San Diego",
    	"lat":32.72,
    	"lng":-117.15,
    	"z":11
    },{
    	"key":"la",
    	"label":"Los Angeles",
    	"lat":34.04,
    	"lng":-118.31,
    	"z":11
    },{
    	"key":"sf",
    	"label":"San Francisco",
    	"lat":37.77,
    	"lng":-122.40,
    	"z":11
    },{
    	"key":"ny",
    	"label":"New York",
    	"lat":40.74,
    	"lng":-74.0,
    	"z":11
    },{
    	"key":"dc",
    	"label":"Washington, DC",
    	"lat":38.88,
    	"lng":-77.04,
    	"z":11
    },{
    	"key":"bs",
    	"label":"Boston",
    	"lat":42.36,
    	"lng":-71.05,
    	"z":11
    },{
    	"key":"br",
    	"label":"Berlin",
    	"lat":52.51,
    	"lng":13.36,
    	"z":11
    },{
    	"key":"tk",
    	"label":"Tokyo",
    	"lat":35.69,
    	"lng":139.73,
    	"z":11
    }]
}